{"type":"FeatureCollection","totalFeatures":181,"features":[{"type":"Feature","id":"vva_comercio_comercios_105.fid-2f8a6b3_16bd8a748b7_1bf2","geometry":{"type":"Point","coordinates":[-5.797583918638079,38.97309789631067]},"geometry_name":"GEOMETRY","properties":{"id":226,"identificador":null,"establecimiento":"LA BOTICA DE LOS PERFUMES","sector":"PERFUMERIA","tipo_via":"CALLE","direccion":"ANTONIO MAURA 38","ciudad":"Villanueva de la Serena","pais":"España","id_municipio":6153}},{"type":"Feature","id":"vva_comercio_comercios_105.fid-2f8a6b3_16bd8a748b7_1bf3","geometry":{"type":"Point","coordinates":[-5.791067937731905,38.98047643955501]},"geometry_name":"GEOMETRY","properties":{"id":227,"identificador":null,"establecimiento":"GIMNASIO ZEUS","sector":"SALUD","tipo_via":"CALLE","direccion":"CASTILLO DE LA ENCOMIENDA, 142","ciudad":"Villanueva de la Serena","pais":"España","id_municipio":6153}},{"type":"Feature","id":"vva_comercio_comercios_105.fid-2f8a6b3_16bd8a748b7_1bf4","geometry":{"type":"Point","coordinates":[-5.796945329244658,38.973736223016495]},"geometry_name":"GEOMETRY","properties":{"id":228,"identificador":null,"establecimiento":"CHANDELIER BOUTIQUE","sector":"TEXTIL","tipo_via":"AVENIDA","direccion":"SAN FRANCISCO, 2 BAJO 1","ciudad":"Villanueva de la Serena","pais":"España","id_municipio":6153}},{"type":"Feature","id":"vva_comercio_comercios_105.fid-2f8a6b3_16bd8a748b7_1bf5","geometry":{"type":"Point","coordinates":[-5.807157407797814,38.970485076344715]},"geometry_name":"GEOMETRY","properties":{"id":4,"identificador":4,"establecimiento":"ACADEMIA JALIQUE","sector":"ENSEÑANZA","tipo_via":"CALLE","direccion":"SIERRA NEVADA, 8","ciudad":"Villanueva de la Serena","pais":"España","id_municipio":6153}},{"type":"Feature","id":"vva_comercio_comercios_105.fid-2f8a6b3_16bd8a748b7_1bf6","geometry":{"type":"Point","coordinates":[-5.793847827925897,38.981671948944175]},"geometry_name":"GEOMETRY","properties":{"id":20,"identificador":116,"establecimiento":"LA SIRENITA GUAY","sector":"ALIMENTACIÓN","tipo_via":"AVENIDA","direccion":"HERNÁN CORTÉS, 230","ciudad":"Villanueva de la Serena","pais":"España","id_municipio":6153}},{"type":"Feature","id":"vva_comercio_comercios_105.fid-2f8a6b3_16bd8a748b7_1bf7","geometry":{"type":"Point","coordinates":[-5.798262772995866,38.972363791410615]},"geometry_name":"GEOMETRY","properties":{"id":30,"identificador":121,"establecimiento":"LENCERÍA CORSETERÍA MODELINE","sector":"TEXTIL","tipo_via":"CALLE","direccion":"ANTONIO MAURA, 16","ciudad":"Villanueva de la Serena","pais":"España","id_municipio":6153}},{"type":"Feature","id":"vva_comercio_comercios_105.fid-2f8a6b3_16bd8a748b7_1bf8","geometry":{"type":"Point","coordinates":[-5.797188420792943,38.97726683702796]},"geometry_name":"GEOMETRY","properties":{"id":13,"identificador":9,"establecimiento":"AFRYEST","sector":"TIENDA DE ANIMALES","tipo_via":"CALLE","direccion":"SAN MIGUEL, 14","ciudad":"Villanueva de la Serena","pais":"España","id_municipio":6153}},{"type":"Feature","id":"vva_comercio_comercios_105.fid-2f8a6b3_16bd8a748b7_1bf9","geometry":{"type":"Point","coordinates":[-5.797498428908176,38.972723122822686]},"geometry_name":"GEOMETRY","properties":{"id":15,"identificador":10,"establecimiento":"AFYCEN FORMACIÓN","sector":"FORMACIÓN","tipo_via":"CALLE","direccion":"MARCELO MACÍAS, 5","ciudad":"Villanueva de la Serena","pais":"España","id_municipio":6153}},{"type":"Feature","id":"vva_comercio_comercios_105.fid-2f8a6b3_16bd8a748b7_1bfa","geometry":{"type":"Point","coordinates":[-5.792633698305628,38.9752353853759]},"geometry_name":"GEOMETRY","properties":{"id":3,"identificador":7,"establecimiento":"ACADEMIA ÁGORA VILLANUEVA","sector":"ACADEMIA DE FORMACIÓN","tipo_via":"CALLE","direccion":"FELIPE TRIGO SÁNCHEZ, 43","ciudad":"Villanueva de la Serena","pais":"España","id_municipio":6153}},{"type":"Feature","id":"vva_comercio_comercios_105.fid-2f8a6b3_16bd8a748b7_1bfb","geometry":{"type":"Point","coordinates":[-5.799302215815922,38.97037884981469]},"geometry_name":"GEOMETRY","properties":{"id":6,"identificador":5,"establecimiento":"ACADEMIA QUIJOTE","sector":"FORMACIÓN","tipo_via":"PLAZA","direccion":"DEL CORAZÓN DE JESÚS, 6","ciudad":"Villanueva de la Serena","pais":"España","id_municipio":6153}},{"type":"Feature","id":"vva_comercio_comercios_105.fid-2f8a6b3_16bd8a748b7_1bfc","geometry":{"type":"Point","coordinates":[-5.795646066926179,38.97024407380203]},"geometry_name":"GEOMETRY","properties":{"id":8,"identificador":6,"establecimiento":"ACADEMIA ROBLES","sector":"FORMACIÓN","tipo_via":"AVENIDA","direccion":"HERNÁN CORTÉS, 8","ciudad":"Villanueva de la Serena","pais":"España","id_municipio":6153}},{"type":"Feature","id":"vva_comercio_comercios_105.fid-2f8a6b3_16bd8a748b7_1bfd","geometry":{"type":"Point","coordinates":[-5.792470210934867,38.980663669034996]},"geometry_name":"GEOMETRY","properties":{"id":22,"identificador":117,"establecimiento":"LA TIENDA DE RAQUEL","sector":"ALIMENTACIÓN","tipo_via":"CALLE","direccion":"ORIENTE, 184","ciudad":"Villanueva de la Serena","pais":"España","id_municipio":6153}},{"type":"Feature","id":"vva_comercio_comercios_105.fid-2f8a6b3_16bd8a748b7_1bfe","geometry":{"type":"Point","coordinates":[-5.800177736612221,38.97480728053858]},"geometry_name":"GEOMETRY","properties":{"id":5,"identificador":109,"establecimiento":"JOYERÍA HIDALGO","sector":"JOYERÍA","tipo_via":"CALLE","direccion":"CARRERA, 21","ciudad":"Villanueva de la Serena","pais":"España","id_municipio":6153}},{"type":"Feature","id":"vva_comercio_comercios_105.fid-2f8a6b3_16bd8a748b7_1bff","geometry":{"type":"Point","coordinates":[-5.792818748016283,38.973735419815334]},"geometry_name":"GEOMETRY","properties":{"id":27,"identificador":16,"establecimiento":"ARFET","sector":"RECAMBIOS ELECTRODOMÉSTICOS","tipo_via":"AVENIDA","direccion":"HERNÁN CORTÉS, 76","ciudad":"Villanueva de la Serena","pais":"España","id_municipio":6153}},{"type":"Feature","id":"vva_comercio_comercios_105.fid-2f8a6b3_16bd8a748b7_1c00","geometry":{"type":"Point","coordinates":[-5.792777667228298,38.97355568750344]},"geometry_name":"GEOMETRY","properties":{"id":23,"identificador":14,"establecimiento":"ANJANA BIKE","sector":"BICICLETAS","tipo_via":"AVENIDA","direccion":"DE HERNÁN CORTÉS, 82","ciudad":"Villanueva de la Serena","pais":"España","id_municipio":6153}},{"type":"Feature","id":"vva_comercio_comercios_105.fid-2f8a6b3_16bd8a748b7_1c01","geometry":{"type":"Point","coordinates":[-5.795335268152818,38.97347727046652]},"geometry_name":"GEOMETRY","properties":{"id":34,"identificador":123,"establecimiento":"LIBRERÍA SÉNECA","sector":"LIBRERÍA","tipo_via":"AVENIDA","direccion":"SAN FRANCISCO, 33","ciudad":"Villanueva de la Serena","pais":"España","id_municipio":6153}},{"type":"Feature","id":"vva_comercio_comercios_105.fid-2f8a6b3_16bd8a748b7_1c02","geometry":{"type":"Point","coordinates":[-5.793641944294793,38.97191937740246]},"geometry_name":"GEOMETRY","properties":{"id":25,"identificador":15,"establecimiento":"ARBELECOS","sector":"SALUD","tipo_via":"AVENIDA","direccion":"HERNÁN CORTÉS, 48","ciudad":"Villanueva de la Serena","pais":"España","id_municipio":6153}},{"type":"Feature","id":"vva_comercio_comercios_105.fid-2f8a6b3_16bd8a748b7_1c03","geometry":{"type":"Point","coordinates":[-5.794621109428349,38.973300313215375]},"geometry_name":"GEOMETRY","properties":{"id":12,"identificador":8,"establecimiento":"ACHILA","sector":"TEXTIL Y ZAPATERÍA","tipo_via":"AVENIDA","direccion":"SAN FRANCISCO, 47","ciudad":"Villanueva de la Serena","pais":"España","id_municipio":6153}},{"type":"Feature","id":"vva_comercio_comercios_105.fid-2f8a6b3_16bd8a748b7_1c04","geometry":{"type":"Point","coordinates":[-5.799410794808327,38.98206249868183]},"geometry_name":"GEOMETRY","properties":{"id":33,"identificador":19,"establecimiento":"AROMIN FISH","sector":"ANIMALES","tipo_via":"RONDA","direccion":"DE LA HISPANIDAD, S/N","ciudad":"Villanueva de la Serena","pais":"España","id_municipio":6153}},{"type":"Feature","id":"vva_comercio_comercios_105.fid-2f8a6b3_16bd8a748b7_1c05","geometry":{"type":"Point","coordinates":[-5.793855648088155,38.98178908051244]},"geometry_name":"GEOMETRY","properties":{"id":35,"identificador":20,"establecimiento":"ART PEOPLE","sector":"PELUQUERÍA Y ESTÉTICA","tipo_via":"AVENIDA","direccion":"HERNÁN CORTÉS, 230 BAJO","ciudad":"Villanueva de la Serena","pais":"España","id_municipio":6153}},{"type":"Feature","id":"vva_comercio_comercios_105.fid-2f8a6b3_16bd8a748b7_1c06","geometry":{"type":"Point","coordinates":[-5.793471328847935,38.978069307465645]},"geometry_name":"GEOMETRY","properties":{"id":39,"identificador":22,"establecimiento":"AUTOLAVADOS TAPIA","sector":"LAVADO DE VEHÍCULOS","tipo_via":"AVENIDA","direccion":"HERNÁN CORTÉS, 168","ciudad":"Villanueva de la Serena","pais":"España","id_municipio":6153}},{"type":"Feature","id":"vva_comercio_comercios_105.fid-2f8a6b3_16bd8a748b7_1c07","geometry":{"type":"Point","coordinates":[-5.7940921890467285,38.973066165304175]},"geometry_name":"GEOMETRY","properties":{"id":37,"identificador":21,"establecimiento":"AS DE GUÍA","sector":"TEXTIL","tipo_via":"AVENIDA","direccion":"SAN FRANCISCO, 30","ciudad":"Villanueva de la Serena","pais":"España","id_municipio":6153}},{"type":"Feature","id":"vva_comercio_comercios_105.fid-2f8a6b3_16bd8a748b7_1c08","geometry":{"type":"Point","coordinates":[-5.805451524917794,38.97143922370398]},"geometry_name":"GEOMETRY","properties":{"id":41,"identificador":23,"establecimiento":"AUTOSERVICIO LA SIRENITA GUAY","sector":"ALIMENTACIÓN","tipo_via":"CALLE","direccion":"DOÑANA, 7","ciudad":"Villanueva de la Serena","pais":"España","id_municipio":6153}},{"type":"Feature","id":"vva_comercio_comercios_105.fid-2f8a6b3_16bd8a748b7_1c09","geometry":{"type":"Point","coordinates":[-5.7982185580615795,38.973525571304386]},"geometry_name":"GEOMETRY","properties":{"id":44,"identificador":143,"establecimiento":"Mª BELÉN  ARROYO ÁLVAREZ ABOGADA","sector":"JURÍDICO","tipo_via":"CALLE","direccion":"ALONSO MUÑOZ, 3, 1ºA","ciudad":"Villanueva de la Serena","pais":"España","id_municipio":6153}},{"type":"Feature","id":"vva_comercio_comercios_105.fid-2f8a6b3_16bd8a748b7_1c0a","geometry":{"type":"Point","coordinates":[-5.793535034065004,38.972949569605426]},"geometry_name":"GEOMETRY","properties":{"id":31,"identificador":18,"establecimiento":"ARMONÍA DECORACIÓN","sector":"HOGAR TEXTIL","tipo_via":"AVENIDA","direccion":"SAN FRANCISCO, 32","ciudad":"Villanueva de la Serena","pais":"España","id_municipio":6153}},{"type":"Feature","id":"vva_comercio_comercios_105.fid-2f8a6b3_16bd8a748b7_1c0b","geometry":{"type":"Point","coordinates":[-5.793265984759685,38.97615510810662]},"geometry_name":"GEOMETRY","properties":{"id":24,"identificador":118,"establecimiento":"LA VENTANA NATURAL","sector":"HERBODIETÉTICA","tipo_via":"AVENIDA","direccion":"HERNÁN CORTÉS, 118 BAJO","ciudad":"Villanueva de la Serena","pais":"España","id_municipio":6153}},{"type":"Feature","id":"vva_comercio_comercios_105.fid-2f8a6b3_16bd8a748b7_1c0c","geometry":{"type":"Point","coordinates":[-5.798451001338639,38.974191173458806]},"geometry_name":"GEOMETRY","properties":{"id":9,"identificador":111,"establecimiento":"KEKOS´S BOUTIQUE","sector":"TEXTIL","tipo_via":"CALLE","direccion":"RAMÓN Y CAJAL, 16","ciudad":"Villanueva de la Serena","pais":"España","id_municipio":6153}},{"type":"Feature","id":"vva_comercio_comercios_105.fid-2f8a6b3_16bd8a748b7_1c0d","geometry":{"type":"Point","coordinates":[-5.794325963465389,38.969403282583905]},"geometry_name":"GEOMETRY","properties":{"id":16,"identificador":114,"establecimiento":"LA FLORENTINA","sector":"ALIMENTACIÓN","tipo_via":"CALLE","direccion":"CAMINO DE MAGACELA, 21 LOCAL 2","ciudad":"Villanueva de la Serena","pais":"España","id_municipio":6153}},{"type":"Feature","id":"vva_comercio_comercios_105.fid-2f8a6b3_16bd8a748b7_1c0e","geometry":{"type":"Point","coordinates":[-5.796996681158093,38.97407441735762]},"geometry_name":"GEOMETRY","properties":{"id":18,"identificador":115,"establecimiento":"LA GIRALDA","sector":"TEXTIL","tipo_via":"PLAZA","direccion":"PASADERAS, 6","ciudad":"Villanueva de la Serena","pais":"España","id_municipio":6153}},{"type":"Feature","id":"vva_comercio_comercios_105.fid-2f8a6b3_16bd8a748b7_1c0f","geometry":{"type":"Point","coordinates":[-5.7954143950794315,38.96989130139373]},"geometry_name":"GEOMETRY","properties":{"id":32,"identificador":122,"establecimiento":"LIBRERÍA PAPELERÍA ABECE","sector":"LIBERÍA","tipo_via":"CALLE","direccion":"CAMINO DE MAGACELA, 4 LOCAL 2","ciudad":"Villanueva de la Serena","pais":"España","id_municipio":6153}},{"type":"Feature","id":"vva_comercio_comercios_105.fid-2f8a6b3_16bd8a748b7_1c10","geometry":{"type":"Point","coordinates":[-5.796856777407213,38.970802670614354]},"geometry_name":"GEOMETRY","properties":{"id":26,"identificador":119,"establecimiento":"LANGUAGE FOR LIFE","sector":"ACADEMIA DE IDIOMAS","tipo_via":"CALLE","direccion":"MAGACELA,73","ciudad":"Villanueva de la Serena","pais":"España","id_municipio":6153}},{"type":"Feature","id":"vva_comercio_comercios_105.fid-2f8a6b3_16bd8a748b7_1c11","geometry":{"type":"Point","coordinates":[-5.797772993080243,38.97791760118624]},"geometry_name":"GEOMETRY","properties":{"id":28,"identificador":120,"establecimiento":"LAVANDERÍA-TINTORERÍA POMPORITA","sector":"LAVANDERÍA","tipo_via":"CALLE","direccion":"PÓSITO, 69","ciudad":"Villanueva de la Serena","pais":"España","id_municipio":6153}},{"type":"Feature","id":"vva_comercio_comercios_105.fid-2f8a6b3_16bd8a748b7_1c12","geometry":{"type":"Point","coordinates":[-5.798503254921518,38.97424235064585]},"geometry_name":"GEOMETRY","properties":{"id":42,"identificador":127,"establecimiento":"LUIS ROMERO","sector":"TEXTIL","tipo_via":"CALLE","direccion":"RAMÓN Y CAJAL, 21","ciudad":"Villanueva de la Serena","pais":"España","id_municipio":6153}},{"type":"Feature","id":"vva_comercio_comercios_105.fid-2f8a6b3_16bd8a748b7_1c13","geometry":{"type":"Point","coordinates":[-5.793190590384955,38.97550623992421]},"geometry_name":"GEOMETRY","properties":{"id":40,"identificador":126,"establecimiento":"LUIS RAMOS PAREJO","sector":"FONTANERÍA","tipo_via":"AVENIDA","direccion":"HERNÁN CORTÉS, 102","ciudad":"Villanueva de la Serena","pais":"España","id_municipio":6153}},{"type":"Feature","id":"vva_comercio_comercios_105.fid-2f8a6b3_16bd8a748b7_1c14","geometry":{"type":"Point","coordinates":[-5.795779721288266,38.97298105843879]},"geometry_name":"GEOMETRY","properties":{"id":45,"identificador":26,"establecimiento":"BED´S","sector":"COLCHONERÍA","tipo_via":"CALLE","direccion":"CONCEPCIÓN, 21","ciudad":"Villanueva de la Serena","pais":"España","id_municipio":6153}},{"type":"Feature","id":"vva_comercio_comercios_105.fid-2f8a6b3_16bd8a748b7_1c15","geometry":{"type":"Point","coordinates":[-5.798031600308381,38.97412536444075]},"geometry_name":"GEOMETRY","properties":{"id":47,"identificador":27,"establecimiento":"BERMEJO CONDE","sector":"TEXTIL","tipo_via":"CALLE","direccion":"RAMÓN Y CAJAL","ciudad":"Villanueva de la Serena","pais":"España","id_municipio":6153}},{"type":"Feature","id":"vva_comercio_comercios_105.fid-2f8a6b3_16bd8a748b7_1c16","geometry":{"type":"Point","coordinates":[-5.7970830889029585,38.97377773665354]},"geometry_name":"GEOMETRY","properties":{"id":7,"identificador":110,"establecimiento":"JOYERÍA YUSTE","sector":"JOYERÍA","tipo_via":"PLAZA","direccion":"PASADERAS, 10","ciudad":"Villanueva de la Serena","pais":"España","id_municipio":6153}},{"type":"Feature","id":"vva_comercio_comercios_105.fid-2f8a6b3_16bd8a748b7_1c17","geometry":{"type":"Point","coordinates":[-5.797717588379997,38.97285984229142]},"geometry_name":"GEOMETRY","properties":{"id":48,"identificador":130,"establecimiento":"MANHATTAN","sector":"MODA","tipo_via":"CALLE","direccion":"ANTONIO MAURA, 32","ciudad":"Villanueva de la Serena","pais":"España","id_municipio":6153}},{"type":"Feature","id":"vva_comercio_comercios_105.fid-2f8a6b3_16bd8a748b7_1c18","geometry":{"type":"Point","coordinates":[-5.796189021431337,38.970925893433424]},"geometry_name":"GEOMETRY","properties":{"id":56,"identificador":31,"establecimiento":"EL HORNO DEL SERON","sector":"DULCERÍA-BOLLERÍA-PANADERIA","tipo_via":"CALLE","direccion":"MARCELO MACÍAS, 44","ciudad":"Villanueva de la Serena","pais":"España","id_municipio":6153}},{"type":"Feature","id":"vva_comercio_comercios_105.fid-2f8a6b3_16bd8a748b7_1c19","geometry":{"type":"Point","coordinates":[-5.798181684061721,38.972084814638336]},"geometry_name":"GEOMETRY","properties":{"id":229,"identificador":null,"establecimiento":"CALZADOS GALLEGO","sector":"ZAPATERÍA","tipo_via":"CALLE","direccion":"MAGACELA, 39","ciudad":"Villanueva de la Serena","pais":"España","id_municipio":6153}},{"type":"Feature","id":"vva_comercio_comercios_105.fid-2f8a6b3_16bd8a748b7_1c1a","geometry":{"type":"Point","coordinates":[-5.7972071173852,38.97392263380991]},"geometry_name":"GEOMETRY","properties":{"id":62,"identificador":34,"establecimiento":"BOUTIQUE GALA","sector":"TEXTIL","tipo_via":"PLAZA","direccion":"PASADERAS, 4","ciudad":"Villanueva de la Serena","pais":"España","id_municipio":6153}},{"type":"Feature","id":"vva_comercio_comercios_105.fid-2f8a6b3_16bd8a748b7_1c1b","geometry":{"type":"Point","coordinates":[-5.798352066800899,38.97371173875993]},"geometry_name":"GEOMETRY","properties":{"id":222,"identificador":82,"establecimiento":"EVA MERINO, TALLAS ESPECIALES","sector":"TEXTIL","tipo_via":"CALLE","direccion":"LARES, 8 LOCAL","ciudad":"Villanueva de la Serena","pais":"España","id_municipio":6153}},{"type":"Feature","id":"vva_comercio_comercios_105.fid-2f8a6b3_16bd8a748b7_1c1c","geometry":{"type":"Point","coordinates":[-5.794391145816603,38.973230522782806]},"geometry_name":"GEOMETRY","properties":{"id":66,"identificador":36,"establecimiento":"CALZADOS GALLEGO","sector":"CALZADO","tipo_via":"AVENIDA","direccion":"SAN FRANCISCO, 53","ciudad":"Villanueva de la Serena","pais":"España","id_municipio":6153}},{"type":"Feature","id":"vva_comercio_comercios_105.fid-2f8a6b3_16bd8a748b7_1c1d","geometry":{"type":"Point","coordinates":[-5.793743109700548,38.9729938251446]},"geometry_name":"GEOMETRY","properties":{"id":51,"identificador":29,"establecimiento":"BIODENTAL","sector":"SANIDAD","tipo_via":"AVENIDA","direccion":"SAN FRANCISCO, 30","ciudad":"Villanueva de la Serena","pais":"España","id_municipio":6153}},{"type":"Feature","id":"vva_comercio_comercios_105.fid-2f8a6b3_16bd8a748b7_1c1e","geometry":{"type":"Point","coordinates":[-5.797445776471682,38.97259620625442]},"geometry_name":"GEOMETRY","properties":{"id":64,"identificador":35,"establecimiento":"BUDHA ESTILISTAS","sector":"PELUQUERÍA","tipo_via":"CALLE","direccion":"MARCELO MACÍAS, 4","ciudad":"Villanueva de la Serena","pais":"España","id_municipio":6153}},{"type":"Feature","id":"vva_comercio_comercios_105.fid-2f8a6b3_16bd8a748b7_1c1f","geometry":{"type":"Point","coordinates":[-5.792952609283718,38.97251190399161]},"geometry_name":"GEOMETRY","properties":{"id":59,"identificador":32,"establecimiento":"BOUTIQUE DEL CABELLO","sector":"PERFUMERÍA","tipo_via":"AVENIDA","direccion":"HERNÁN CORTES, 64","ciudad":"Villanueva de la Serena","pais":"España","id_municipio":6153}},{"type":"Feature","id":"vva_comercio_comercios_105.fid-2f8a6b3_16bd8a748b7_1c20","geometry":{"type":"Point","coordinates":[-5.79329563076423,38.972993075764315]},"geometry_name":"GEOMETRY","properties":{"id":81,"identificador":43,"establecimiento":"CENTRO DE ESTÉTICA GEMMA TENA","sector":"ESTÉTICA","tipo_via":"AVENIDA","direccion":"SAN FRANCISCO, 63 BAJO","ciudad":"Villanueva de la Serena","pais":"España","id_municipio":6153}},{"type":"Feature","id":"vva_comercio_comercios_105.fid-2f8a6b3_16bd8a748b7_1c21","geometry":{"type":"Point","coordinates":[-5.798668944552453,38.97341167922523]},"geometry_name":"GEOMETRY","properties":{"id":75,"identificador":40,"establecimiento":"CENTRO DE BELLEZA STILOS","sector":"BELLEZA","tipo_via":"CALLE","direccion":"ALONSO MUÑOZ, 2","ciudad":"Villanueva de la Serena","pais":"España","id_municipio":6153}},{"type":"Feature","id":"vva_comercio_comercios_105.fid-2f8a6b3_16bd8a748b7_1c22","geometry":{"type":"Point","coordinates":[-5.796592010670839,38.97252723516283]},"geometry_name":"GEOMETRY","properties":{"id":73,"identificador":39,"establecimiento":"CENTRO C.E.M.P.E.","sector":"OSTEOPATÍA Y GIMNASIO FEMENINO","tipo_via":"CALLE","direccion":"VIRIATO, 15","ciudad":"Villanueva de la Serena","pais":"España","id_municipio":6153}},{"type":"Feature","id":"vva_comercio_comercios_105.fid-2f8a6b3_16bd8a748b7_1c23","geometry":{"type":"Point","coordinates":[-5.794915142022372,38.96924760589018]},"geometry_name":"GEOMETRY","properties":{"id":77,"identificador":41,"establecimiento":"CENTRO DE ESTÉTICA ALMUDENA SOLOMANDO","sector":"CENTRO DE ESTÉTICA","tipo_via":"CALLE","direccion":"JOSÉ MIGUEL SANTIAGO CASTELO, 3 LOCAL","ciudad":"Villanueva de la Serena","pais":"España","id_municipio":6153}},{"type":"Feature","id":"vva_comercio_comercios_105.fid-2f8a6b3_16bd8a748b7_1c24","geometry":{"type":"Point","coordinates":[-5.806618544706839,38.97221314034187]},"geometry_name":"GEOMETRY","properties":{"id":79,"identificador":42,"establecimiento":"CENTRO DE ESTÉTICA BELL","sector":"ESTÉTICA","tipo_via":"CALLE","direccion":"SIERRA DE GATA, LOCAL 4","ciudad":"Villanueva de la Serena","pais":"España","id_municipio":6153}},{"type":"Feature","id":"vva_comercio_comercios_105.fid-2f8a6b3_16bd8a748b7_1c25","geometry":{"type":"Point","coordinates":[-5.793548989386924,38.978731817313026]},"geometry_name":"GEOMETRY","properties":{"id":61,"identificador":136,"establecimiento":"MERCERÍA MARÍA","sector":"MERCERÍA","tipo_via":"AVENIDA","direccion":"HERNÁN CORTÉS, 182","ciudad":"Villanueva de la Serena","pais":"España","id_municipio":6153}},{"type":"Feature","id":"vva_comercio_comercios_105.fid-2f8a6b3_16bd8a748b7_1c26","geometry":{"type":"Point","coordinates":[-5.794147930925268,38.981829905359064]},"geometry_name":"GEOMETRY","properties":{"id":94,"identificador":153,"establecimiento":"PALACIO DEL SOFÁ","sector":"MUEBLES","tipo_via":"AVENIDA","direccion":"HERNÁN CORTÉS, 227","ciudad":"Villanueva de la Serena","pais":"España","id_municipio":6153}},{"type":"Feature","id":"vva_comercio_comercios_105.fid-2f8a6b3_16bd8a748b7_1c27","geometry":{"type":"Point","coordinates":[-5.8003462413651246,38.97539996699274]},"geometry_name":"GEOMETRY","properties":{"id":83,"identificador":44,"establecimiento":"CENTRO DE ESTÉTICA PAQUI","sector":"ESTÉTICA","tipo_via":"CALLE","direccion":"NAZARENO, 7","ciudad":"Villanueva de la Serena","pais":"España","id_municipio":6153}},{"type":"Feature","id":"vva_comercio_comercios_105.fid-2f8a6b3_16bd8a748b7_1c28","geometry":{"type":"Point","coordinates":[-5.796393331490952,38.973628855390956]},"geometry_name":"GEOMETRY","properties":{"id":89,"identificador":47,"establecimiento":"CENTRO DE OPTOMETRÍA AVANZADA \"LA GAFERÍA\"","sector":"ÓPTICA","tipo_via":"AVENIDA","direccion":"SAN FRANCISCO, 12","ciudad":"Villanueva de la Serena","pais":"España","id_municipio":6153}},{"type":"Feature","id":"vva_comercio_comercios_105.fid-2f8a6b3_16bd8a748b7_1c29","geometry":{"type":"Point","coordinates":[-5.795770237049912,38.969243407695615]},"geometry_name":"GEOMETRY","properties":{"id":85,"identificador":45,"establecimiento":"CENTRO DE LOGOPEDIA CLÍNICA GER","sector":"SALUD","tipo_via":"PLAZA","direccion":"DE LA JABONERA, 2 LOCAL 3","ciudad":"Villanueva de la Serena","pais":"España","id_municipio":6153}},{"type":"Feature","id":"vva_comercio_comercios_105.fid-2f8a6b3_16bd8a748b7_1c2a","geometry":{"type":"Point","coordinates":[-5.7980939785742445,38.971975350465506]},"geometry_name":"GEOMETRY","properties":{"id":87,"identificador":46,"establecimiento":"CENTRO DE NUEVAS TECNOLOGÍAS","sector":"INFORMÁTICA","tipo_via":"CALLE","direccion":"MAGACELA, 43","ciudad":"Villanueva de la Serena","pais":"España","id_municipio":6153}},{"type":"Feature","id":"vva_comercio_comercios_105.fid-2f8a6b3_16bd8a748b7_1c2b","geometry":{"type":"Point","coordinates":[-5.793412315961522,38.977471897857534]},"geometry_name":"GEOMETRY","properties":{"id":54,"identificador":133,"establecimiento":"MARQUETERÍA PEMA","sector":"DECORACIÓN","tipo_via":"AVENIDA","direccion":"DE HERNÁN CORTÉS, 152","ciudad":"Villanueva de la Serena","pais":"España","id_municipio":6153}},{"type":"Feature","id":"vva_comercio_comercios_105.fid-2f8a6b3_16bd8a748b7_1c2c","geometry":{"type":"Point","coordinates":[-5.800070637244223,38.97365090532759]},"geometry_name":"GEOMETRY","properties":{"id":91,"identificador":48,"establecimiento":"CENTRO DE PELUQUERÍA Y ESTÉTICA EL PARQUE","sector":"PELUQUERÍA","tipo_via":"PARQUE","direccion":"DE LA CONSTITUCIÓN, 17 BAJO","ciudad":"Villanueva de la Serena","pais":"España","id_municipio":6153}},{"type":"Feature","id":"vva_comercio_comercios_105.fid-2f8a6b3_16bd8a748b7_1c2d","geometry":{"type":"Point","coordinates":[-5.7917258302650865,38.972538706689576]},"geometry_name":"GEOMETRY","properties":{"id":93,"identificador":49,"establecimiento":"CENTRO VETERINARIO ACQUA-ZOO","sector":"CLÍNICA VETERINARIA","tipo_via":"AVENIDA","direccion":"DE CHILE, 20","ciudad":"Villanueva de la Serena","pais":"España","id_municipio":6153}},{"type":"Feature","id":"vva_comercio_comercios_105.fid-2f8a6b3_16bd8a748b7_1c2e","geometry":{"type":"Point","coordinates":[-5.805669186412978,38.97173835775312]},"geometry_name":"GEOMETRY","properties":{"id":52,"identificador":132,"establecimiento":"MARÍA GÁLVEZ","sector":"PELUQUERÍA","tipo_via":"CALLE","direccion":"TENTUDÍA, S/N","ciudad":"Villanueva de la Serena","pais":"España","id_municipio":6153}},{"type":"Feature","id":"vva_comercio_comercios_105.fid-2f8a6b3_16bd8a748b7_1c2f","geometry":{"type":"Point","coordinates":[-5.793817528517081,38.97362545828294]},"geometry_name":"GEOMETRY","properties":{"id":220,"identificador":147,"establecimiento":"OBRADOR QUINTANA","sector":"ALIMENTACIÓN","tipo_via":"CALLE","direccion":"VALDIVIA, 3","ciudad":"Villanueva de la Serena","pais":"España","id_municipio":6153}},{"type":"Feature","id":"vva_comercio_comercios_105.fid-2f8a6b3_16bd8a748b7_1c30","geometry":{"type":"Point","coordinates":[-5.7987236516999285,38.97343173222846]},"geometry_name":"GEOMETRY","properties":{"id":58,"identificador":135,"establecimiento":"MEDICADENTAL, CLÍNICAS","sector":"SALUD","tipo_via":"CALLE","direccion":"ALONSO MUÑOZ, 1","ciudad":"Villanueva de la Serena","pais":"España","id_municipio":6153}},{"type":"Feature","id":"vva_comercio_comercios_105.fid-2f8a6b3_16bd8a748b7_1c31","geometry":{"type":"Point","coordinates":[-5.803811030434385,38.97579302284101]},"geometry_name":"GEOMETRY","properties":{"id":63,"identificador":137,"establecimiento":"MI BARRIO","sector":"ALIMENTACIÓN","tipo_via":"CALLE","direccion":"MUELA, 21","ciudad":"Villanueva de la Serena","pais":"España","id_municipio":6153}},{"type":"Feature","id":"vva_comercio_comercios_105.fid-2f8a6b3_16bd8a748b7_1c32","geometry":{"type":"Point","coordinates":[-5.798900047775257,38.974482599408375]},"geometry_name":"GEOMETRY","properties":{"id":78,"identificador":146,"establecimiento":"NEW STYLE","sector":"PELUQUERÍA","tipo_via":"CALLE","direccion":"RAFAEL LOZANO ALONSO, 2 BJO","ciudad":"Villanueva de la Serena","pais":"España","id_municipio":6153}},{"type":"Feature","id":"vva_comercio_comercios_105.fid-2f8a6b3_16bd8a748b7_1c33","geometry":{"type":"Point","coordinates":[-5.79717411702134,38.969496756312395]},"geometry_name":"GEOMETRY","properties":{"id":69,"identificador":140,"establecimiento":"MONTSE ESTÉTICA Y SALUD","sector":"ESTÉTICA Y SALUD","tipo_via":"CALLE","direccion":"JOSÉ GALLARDO, 21","ciudad":"Villanueva de la Serena","pais":"España","id_municipio":6153}},{"type":"Feature","id":"vva_comercio_comercios_105.fid-2f8a6b3_16bd8a748b7_1c34","geometry":{"type":"Point","coordinates":[-5.797821048226902,38.97172326895457]},"geometry_name":"GEOMETRY","properties":{"id":224,"identificador":24,"establecimiento":"AUTOSERVICIO SEGADOR","sector":"ALEMANTACIÓN","tipo_via":"CALLE","direccion":"MAGACELA","ciudad":"Villanueva de la Serena","pais":"España","id_municipio":6153}},{"type":"Feature","id":"vva_comercio_comercios_105.fid-2f8a6b3_16bd8a748b7_1c35","geometry":{"type":"Point","coordinates":[-5.796980172184209,38.97377600196776]},"geometry_name":"GEOMETRY","properties":{"id":88,"identificador":150,"establecimiento":"OPTICA YUSTE","sector":"ÓPTICA","tipo_via":"PLAZA","direccion":"PASADERAS, 10","ciudad":"Villanueva de la Serena","pais":"España","id_municipio":6153}},{"type":"Feature","id":"vva_comercio_comercios_105.fid-2f8a6b3_16bd8a748b7_1c36","geometry":{"type":"Point","coordinates":[-5.795589485492989,38.97030905137093]},"geometry_name":"GEOMETRY","properties":{"id":92,"identificador":152,"establecimiento":"PALACIO DEL SOFÁ","sector":"MUEBLES","tipo_via":"AVENIDA","direccion":"HERNÁN CORTÉS, 10","ciudad":"Villanueva de la Serena","pais":"España","id_municipio":6153}},{"type":"Feature","id":"vva_comercio_comercios_105.fid-2f8a6b3_16bd8a748b7_1c37","geometry":{"type":"Point","coordinates":[-5.797617858559464,38.97381826156521]},"geometry_name":"GEOMETRY","properties":{"id":90,"identificador":151,"establecimiento":"OPTICALIA PRISMA","sector":"ÓPTICA","tipo_via":"PLAZA","direccion":"PASADERAS, 2","ciudad":"Villanueva de la Serena","pais":"España","id_municipio":6153}},{"type":"Feature","id":"vva_comercio_comercios_105.fid-2f8a6b3_16bd8a748b7_1c38","geometry":{"type":"Point","coordinates":[-5.798239310607449,38.97413122710076]},"geometry_name":"GEOMETRY","properties":{"id":72,"identificador":141,"establecimiento":"MULTIOPTICAS","sector":"OPTICA","tipo_via":"CALLE","direccion":"RAMÓN Y CAJAL, 20","ciudad":"Villanueva de la Serena","pais":"España","id_municipio":6153}},{"type":"Feature","id":"vva_comercio_comercios_105.fid-2f8a6b3_16bd8a748b7_1c39","geometry":{"type":"Point","coordinates":[-5.799453700042489,38.97430999530188]},"geometry_name":"GEOMETRY","properties":{"id":74,"identificador":142,"establecimiento":"MUÑOZ ZAPATERÍA","sector":"ZAPATERÍA","tipo_via":"CALLE","direccion":"RAMÓN Y CAJAL, 5","ciudad":"Villanueva de la Serena","pais":"España","id_municipio":6153}},{"type":"Feature","id":"vva_comercio_comercios_105.fid-2f8a6b3_16bd8a748b7_1c3a","geometry":{"type":"Point","coordinates":[-5.7947487614900615,38.973334166685845]},"geometry_name":"GEOMETRY","properties":{"id":217,"identificador":145,"establecimiento":"NEFER","sector":"JOYERÍA","tipo_via":"AVENIDA","direccion":"SAN FRANCISCO, 45","ciudad":"Villanueva de la Serena","pais":"España","id_municipio":6153}},{"type":"Feature","id":"vva_comercio_comercios_105.fid-2f8a6b3_16bd8a748b7_1c3b","geometry":{"type":"Point","coordinates":[-5.797606136160334,38.97350291824199]},"geometry_name":"GEOMETRY","properties":{"id":86,"identificador":149,"establecimiento":"OPTICA CRISTAL","sector":"ÓPTICA","tipo_via":"CALLE","direccion":"ANTONIO MAURA, 48","ciudad":"Villanueva de la Serena","pais":"España","id_municipio":6153}},{"type":"Feature","id":"vva_comercio_comercios_105.fid-2f8a6b3_16bd8a748b7_1c3c","geometry":{"type":"Point","coordinates":[-5.796520515150144,38.97436360702408]},"geometry_name":"GEOMETRY","properties":{"id":49,"identificador":28,"establecimiento":"BERMEJO CONDE HOMBRE","sector":"TEXTIL","tipo_via":"CALLE","direccion":"GABRIÉL Y GALÁN, 11","ciudad":"Villanueva de la Serena","pais":"España","id_municipio":6153}},{"type":"Feature","id":"vva_comercio_comercios_105.fid-2f8a6b3_16bd8a748b7_1c3d","geometry":{"type":"Point","coordinates":[-5.798045804146449,38.9726731128788]},"geometry_name":"GEOMETRY","properties":{"id":223,"identificador":186,"establecimiento":"SCARPE","sector":"ZAPATERÍA","tipo_via":"CALLE","direccion":"ANTONIO MAURA, 15","ciudad":"Villanueva de la Serena","pais":"España","id_municipio":6153}},{"type":"Feature","id":"vva_comercio_comercios_105.fid-2f8a6b3_16bd8a748b7_1c3e","geometry":{"type":"Point","coordinates":[-5.798262946540336,38.973718501192735]},"geometry_name":"GEOMETRY","properties":{"id":221,"identificador":177,"establecimiento":"PRINCIPITOS ZAPATOS INFANTILES","sector":"ZAPATERÍA","tipo_via":"CALLE","direccion":"LARES, 8 LOCAL","ciudad":"Villanueva de la Serena","pais":"España","id_municipio":6153}},{"type":"Feature","id":"vva_comercio_comercios_105.fid-2f8a6b3_16bd8a748b7_1c3f","geometry":{"type":"Point","coordinates":[-5.79852185743757,38.9736887630617]},"geometry_name":"GEOMETRY","properties":{"id":230,"identificador":null,"establecimiento":"EL CORDÓN NEGRO","sector":"TEXTIL","tipo_via":"CALLE","direccion":"LARES 13","ciudad":"Villanueva de la Serena","pais":"España","id_municipio":6153}},{"type":"Feature","id":"vva_comercio_comercios_105.fid-2f8a6b3_16bd8a748b7_1c40","geometry":{"type":"Point","coordinates":[-5.793404956551637,38.973083542626085]},"geometry_name":"GEOMETRY","properties":{"id":231,"identificador":null,"establecimiento":"DIGITAL EXTREMADURA","sector":"IMPRESIÓN Y PUBLICIDAD","tipo_via":"AVENIDA","direccion":"SAN FRANCISCO, 63 PASAJE","ciudad":"Villanueva de la Serena","pais":"España","id_municipio":6153}},{"type":"Feature","id":"vva_comercio_comercios_105.fid-2f8a6b3_16bd8a748b7_1c41","geometry":{"type":"Point","coordinates":[-5.802626425100216,38.97346761410135]},"geometry_name":"GEOMETRY","properties":{"id":232,"identificador":null,"establecimiento":"ALIMENTACIÓN PELEGRINI","sector":"ALIMENTACIÓN-DROGUERIA","tipo_via":"CALLE","direccion":"SAN BENITO, 23","ciudad":"Villanueva de la Serena","pais":"España","id_municipio":6153}},{"type":"Feature","id":"vva_comercio_comercios_105.fid-2f8a6b3_16bd8a748b7_1c42","geometry":{"type":"Point","coordinates":[-5.793245158959414,38.97590275784854]},"geometry_name":"GEOMETRY","properties":{"id":114,"identificador":60,"establecimiento":"CRISTALERÍA Y TOLDOS PALLARES","sector":"CRISTALERÍA Y TOLDOS","tipo_via":"AVENIDA","direccion":"HERNÁN CORTÉS, 112","ciudad":"Villanueva de la Serena","pais":"España","id_municipio":6153}},{"type":"Feature","id":"vva_comercio_comercios_105.fid-2f8a6b3_16bd8a748b7_1c43","geometry":{"type":"Point","coordinates":[-5.797601659788596,38.97304809120209]},"geometry_name":"GEOMETRY","properties":{"id":125,"identificador":71,"establecimiento":"DON PAN","sector":"ALIMENTACIÓN","tipo_via":"CALLE","direccion":"ANTONIO MAURA, 36","ciudad":"Villanueva de la Serena","pais":"España","id_municipio":6153}},{"type":"Feature","id":"vva_comercio_comercios_105.fid-2f8a6b3_16bd8a748b7_1c44","geometry":{"type":"Point","coordinates":[-5.795210707935787,38.97345035239767]},"geometry_name":"GEOMETRY","properties":{"id":135,"identificador":81,"establecimiento":"EURONICS","sector":"ELECTRODOMÉSTICOS","tipo_via":"AVENIDA","direccion":"SAN FRANCISCO, 37","ciudad":"Villanueva de la Serena","pais":"España","id_municipio":6153}},{"type":"Feature","id":"vva_comercio_comercios_105.fid-2f8a6b3_16bd8a748b7_1c45","geometry":{"type":"Point","coordinates":[-5.792096505536838,38.980833433084015]},"geometry_name":"GEOMETRY","properties":{"id":98,"identificador":155,"establecimiento":"PANADERÍA DAIMIEL (CRUZ DEL RÍO)","sector":"ALIMENTACIÓN","tipo_via":"PLAZA","direccion":"JUAN XXIII, 8","ciudad":"Villanueva de la Serena","pais":"España","id_municipio":6153}},{"type":"Feature","id":"vva_comercio_comercios_105.fid-2f8a6b3_16bd8a748b7_1c46","geometry":{"type":"Point","coordinates":[-5.798205643127652,38.97416806728726]},"geometry_name":"GEOMETRY","properties":{"id":123,"identificador":69,"establecimiento":"DEPORTES Y CALZADOS PINEDA","sector":"CALZADO Y DEPORTES","tipo_via":"CALLE","direccion":"RAMÓN Y CAJAL, 25","ciudad":"Villanueva de la Serena","pais":"España","id_municipio":6153}},{"type":"Feature","id":"vva_comercio_comercios_105.fid-2f8a6b3_16bd8a748b7_1c47","geometry":{"type":"Point","coordinates":[-5.793980519505539,38.98212105378112]},"geometry_name":"GEOMETRY","properties":{"id":124,"identificador":70,"establecimiento":"DIEXPA","sector":"PAPELERÍA","tipo_via":"AVENIDA","direccion":"HERNÁN CORTÉS","ciudad":"Villanueva de la Serena","pais":"España","id_municipio":6153}},{"type":"Feature","id":"vva_comercio_comercios_105.fid-2f8a6b3_16bd8a748b7_1c48","geometry":{"type":"Point","coordinates":[-5.797056365953419,38.97418602651956]},"geometry_name":"GEOMETRY","properties":{"id":127,"identificador":74,"establecimiento":"DROGUERÍA CENTRAL C.B.","sector":"DROGUERÍA","tipo_via":"CALLE","direccion":"LÓPEZ DE AYALA, 2","ciudad":"Villanueva de la Serena","pais":"España","id_municipio":6153}},{"type":"Feature","id":"vva_comercio_comercios_105.fid-2f8a6b3_16bd8a748b7_1c49","geometry":{"type":"Point","coordinates":[-5.794874362975066,38.97336486752635]},"geometry_name":"GEOMETRY","properties":{"id":115,"identificador":61,"establecimiento":"CUCHILLERÍA PRIETO","sector":"CUCHILLERÍA","tipo_via":"AVENIDA","direccion":"SAN FRANCISCO, 43","ciudad":"Villanueva de la Serena","pais":"España","id_municipio":6153}},{"type":"Feature","id":"vva_comercio_comercios_105.fid-2f8a6b3_16bd8a748b7_1c4a","geometry":{"type":"Point","coordinates":[-5.796162554079776,38.96965699697396]},"geometry_name":"GEOMETRY","properties":{"id":106,"identificador":160,"establecimiento":"PAVO VILLANUEVA","sector":null,"tipo_via":"AVENIDA","direccion":"HERNÁN CORTÉS, 2","ciudad":"Villanueva de la Serena","pais":"España","id_municipio":6153}},{"type":"Feature","id":"vva_comercio_comercios_105.fid-2f8a6b3_16bd8a748b7_1c4b","geometry":{"type":"Point","coordinates":[-5.794202456582906,38.982711619962046]},"geometry_name":"GEOMETRY","properties":{"id":131,"identificador":77,"establecimiento":"EL TINTERO","sector":"PAPELERÍA","tipo_via":"AVENIDA","direccion":"HERNÁN CORTÉS, 238 LOCAL C","ciudad":"Villanueva de la Serena","pais":"España","id_municipio":6153}},{"type":"Feature","id":"vva_comercio_comercios_105.fid-2f8a6b3_16bd8a748b7_1c4c","geometry":{"type":"Point","coordinates":[-5.798722578862603,38.973705999441506]},"geometry_name":"GEOMETRY","properties":{"id":138,"identificador":85,"establecimiento":"FARÁNDULA DECORACIÓN","sector":"TEXTIL HOGAR","tipo_via":"CALLE","direccion":"LARES, 6","ciudad":"Villanueva de la Serena","pais":"España","id_municipio":6153}},{"type":"Feature","id":"vva_comercio_comercios_105.fid-2f8a6b3_16bd8a748b7_1c4d","geometry":{"type":"Point","coordinates":[-5.79778648062907,38.97407125653856]},"geometry_name":"GEOMETRY","properties":{"id":110,"identificador":56,"establecimiento":"CLÍNICA DENTAL JUAN CARLOS PABLO MATEOS","sector":"SALUD","tipo_via":"CALLE","direccion":"RAMÓN Y CAJAL, 31 ENTREPLANTA","ciudad":"Villanueva de la Serena","pais":"España","id_municipio":6153}},{"type":"Feature","id":"vva_comercio_comercios_105.fid-2f8a6b3_16bd8a748b7_1c4e","geometry":{"type":"Point","coordinates":[-5.792122904428109,38.972633141887215]},"geometry_name":"GEOMETRY","properties":{"id":126,"identificador":72,"establecimiento":"DONG BAZAR","sector":"BAZAR","tipo_via":"AVENIDA","direccion":"DE CHILE, 14","ciudad":"Villanueva de la Serena","pais":"España","id_municipio":6153}},{"type":"Feature","id":"vva_comercio_comercios_105.fid-2f8a6b3_16bd8a748b7_1c4f","geometry":{"type":"Point","coordinates":[-5.7981061591802305,38.97410209113915]},"geometry_name":"GEOMETRY","properties":{"id":100,"identificador":54,"establecimiento":"CLÍNICA DENTAL DR. P. COLINO","sector":"SALUD","tipo_via":"CALLE","direccion":"RAMÓN Y CAJAL, 24 1º","ciudad":"Villanueva de la Serena","pais":"España","id_municipio":6153}},{"type":"Feature","id":"vva_comercio_comercios_105.fid-2f8a6b3_16bd8a748b7_1c50","geometry":{"type":"Point","coordinates":[-5.795439433390305,38.968806874514385]},"geometry_name":"GEOMETRY","properties":{"id":102,"identificador":55,"establecimiento":"CLÍNICA DENTAL DR. P. COLINO","sector":"SALUD","tipo_via":"PLAZA","direccion":"DE LA JABONERA, 3","ciudad":"Villanueva de la Serena","pais":"España","id_municipio":6153}},{"type":"Feature","id":"vva_comercio_comercios_105.fid-2f8a6b3_16bd8a748b7_1c51","geometry":{"type":"Point","coordinates":[-5.797840978882294,38.97408308346868]},"geometry_name":"GEOMETRY","properties":{"id":117,"identificador":50,"establecimiento":"CHIC","sector":"TEXTIL","tipo_via":"CALLE","direccion":"RAMÓN Y CAJAL, 25","ciudad":"Villanueva de la Serena","pais":"España","id_municipio":6153}},{"type":"Feature","id":"vva_comercio_comercios_105.fid-2f8a6b3_16bd8a748b7_1c52","geometry":{"type":"Point","coordinates":[-5.793252164979586,38.97232283201869]},"geometry_name":"GEOMETRY","properties":{"id":111,"identificador":58,"establecimiento":"COMERCIAL CASTILLO","sector":"ANIMALES","tipo_via":"AVENIDA","direccion":"HERNÁN CORTÉS, 63","ciudad":"Villanueva de la Serena","pais":"España","id_municipio":6153}},{"type":"Feature","id":"vva_comercio_comercios_105.fid-2f8a6b3_16bd8a748b7_1c53","geometry":{"type":"Point","coordinates":[-5.794045608903908,38.969270338290364]},"geometry_name":"GEOMETRY","properties":{"id":112,"identificador":59,"establecimiento":"CONSULTA VETERINARIA FRANCISCO RUÍZ","sector":"CLÍNICA VETERINARIA","tipo_via":"CALLE","direccion":"CAMINO DE MAGACELA, 21","ciudad":"Villanueva de la Serena","pais":"España","id_municipio":6153}},{"type":"Feature","id":"vva_comercio_comercios_105.fid-2f8a6b3_16bd8a748b7_1c54","geometry":{"type":"Point","coordinates":[-5.800226176087035,38.972999204981406]},"geometry_name":"GEOMETRY","properties":{"id":118,"identificador":64,"establecimiento":"DDR INFORMÁTICA","sector":"INFORMÁTICA","tipo_via":"PARQUE","direccion":"DE LA CONSTITUCIÓN, 14","ciudad":"Villanueva de la Serena","pais":"España","id_municipio":6153}},{"type":"Feature","id":"vva_comercio_comercios_105.fid-2f8a6b3_16bd8a748b7_1c55","geometry":{"type":"Point","coordinates":[-5.799462431784914,38.97391435460955]},"geometry_name":"GEOMETRY","properties":{"id":109,"identificador":51,"establecimiento":"CLINICA DENTAL ÉRICA FRANCO","sector":"SALUD","tipo_via":"PARQUE","direccion":"DE LA CONSTITUCIÓN, 3 1º A","ciudad":"Villanueva de la Serena","pais":"España","id_municipio":6153}},{"type":"Feature","id":"vva_comercio_comercios_105.fid-2f8a6b3_16bd8a748b7_1c56","geometry":{"type":"Point","coordinates":[-5.793209407469763,38.9728765413927]},"geometry_name":"GEOMETRY","properties":{"id":122,"identificador":68,"establecimiento":"DEPORTES CRONOS","sector":"DEPORTES Y MODA","tipo_via":"AVENIDA","direccion":"SAN FRANCISCO, 36","ciudad":"Villanueva de la Serena","pais":"España","id_municipio":6153}},{"type":"Feature","id":"vva_comercio_comercios_105.fid-2f8a6b3_16bd8a748b7_1c57","geometry":{"type":"Point","coordinates":[-5.7989527310295905,38.97375131566584]},"geometry_name":"GEOMETRY","properties":{"id":121,"identificador":67,"establecimiento":"DEL POZO NOVIOS","sector":"TEXTIL","tipo_via":"CALLE","direccion":"LARES 3, LOCAL 5","ciudad":"Villanueva de la Serena","pais":"España","id_municipio":6153}},{"type":"Feature","id":"vva_comercio_comercios_105.fid-2f8a6b3_16bd8a748b7_1c58","geometry":{"type":"Point","coordinates":[-5.793422415989839,38.97753720967334]},"geometry_name":"GEOMETRY","properties":{"id":140,"identificador":87,"establecimiento":"FERRETERÍA Y BRICOLAGE LA SERENA","sector":"FERRETERÍA","tipo_via":"AVENIDA","direccion":"HERNÁN CORTES, 154","ciudad":"Villanueva de la Serena","pais":"España","id_municipio":6153}},{"type":"Feature","id":"vva_comercio_comercios_105.fid-2f8a6b3_16bd8a748b7_1c59","geometry":{"type":"Point","coordinates":[-5.798625075083153,38.973704976895704]},"geometry_name":"GEOMETRY","properties":{"id":120,"identificador":66,"establecimiento":"DEL POZO NOVIAS","sector":"TEXTIL","tipo_via":"CALLE","direccion":"LARES, 6","ciudad":"Villanueva de la Serena","pais":"España","id_municipio":6153}},{"type":"Feature","id":"vva_comercio_comercios_105.fid-2f8a6b3_16bd8a748b7_1c5a","geometry":{"type":"Point","coordinates":[-5.797660010720133,38.97594845410246]},"geometry_name":"GEOMETRY","properties":{"id":128,"identificador":75,"establecimiento":"DULCES ARTESANOS ABUELA MARÍA","sector":"ALIMENTACIÓN","tipo_via":"CALLE","direccion":"LÓPEZ DE AYALA, 41","ciudad":"Villanueva de la Serena","pais":"España","id_municipio":6153}},{"type":"Feature","id":"vva_comercio_comercios_105.fid-2f8a6b3_16bd8a748b7_1c5b","geometry":{"type":"Point","coordinates":[-5.798812086451478,38.974288116284086]},"geometry_name":"GEOMETRY","properties":{"id":136,"identificador":83,"establecimiento":"EXTREPPRINT","sector":"IMPRESIÓN Y PUBLICIDAD","tipo_via":"CALLE","direccion":"RAMÓN Y CAJAL, 10 BAJO","ciudad":"Villanueva de la Serena","pais":"España","id_municipio":6153}},{"type":"Feature","id":"vva_comercio_comercios_105.fid-2f8a6b3_16bd8a748b7_1c5c","geometry":{"type":"Point","coordinates":[-5.806953253371859,38.97206204838579]},"geometry_name":"GEOMETRY","properties":{"id":129,"identificador":76,"establecimiento":"EL CAPRICHITO","sector":"ALIMENTACIÓN","tipo_via":"CALLE","direccion":"TIERRA DE BARROS, 1 LOCAL 4","ciudad":"Villanueva de la Serena","pais":"España","id_municipio":6153}},{"type":"Feature","id":"vva_comercio_comercios_105.fid-2f8a6b3_16bd8a748b7_1c5d","geometry":{"type":"Point","coordinates":[-5.798117461319624,38.976325802352925]},"geometry_name":"GEOMETRY","properties":{"id":132,"identificador":78,"establecimiento":"ELECTRODOMÉSTICOS AVELINO","sector":"ELECTRODOMÉSTICOS","tipo_via":"CALLE","direccion":"MANZANEDO, 30","ciudad":"Villanueva de la Serena","pais":"España","id_municipio":6153}},{"type":"Feature","id":"vva_comercio_comercios_105.fid-2f8a6b3_16bd8a748b7_1c5e","geometry":{"type":"Point","coordinates":[-5.803142746029818,38.971652394936704]},"geometry_name":"GEOMETRY","properties":{"id":134,"identificador":80,"establecimiento":"ESPERANZA GONZÁLEZ MODA Y COMPLEMENTOS","sector":"TEXTIL","tipo_via":"PASEO","direccion":"CASTELAR, 21","ciudad":"Villanueva de la Serena","pais":"España","id_municipio":6153}},{"type":"Feature","id":"vva_comercio_comercios_105.fid-2f8a6b3_16bd8a748b7_1c5f","geometry":{"type":"Point","coordinates":[-5.800961624507518,38.97229285921989]},"geometry_name":"GEOMETRY","properties":{"id":133,"identificador":79,"establecimiento":"ESFERA ESTÉTICA Y BIENESTAR","sector":"ESTÉTICA","tipo_via":"CALLE","direccion":"OLIVO GORDO, 3","ciudad":"Villanueva de la Serena","pais":"España","id_municipio":6153}},{"type":"Feature","id":"vva_comercio_comercios_105.fid-2f8a6b3_16bd8a748b7_1c60","geometry":{"type":"Point","coordinates":[-5.79681545143376,38.973834220883305]},"geometry_name":"GEOMETRY","properties":{"id":139,"identificador":86,"establecimiento":"FERRETERÍA MATEO C.B.","sector":"FERRETERÍA","tipo_via":"AVENIDA","direccion":"SAN FRANCISCO, 3","ciudad":"Villanueva de la Serena","pais":"España","id_municipio":6153}},{"type":"Feature","id":"vva_comercio_comercios_105.fid-2f8a6b3_16bd8a748b7_1c61","geometry":{"type":"Point","coordinates":[-5.794167224061092,38.98260637113294]},"geometry_name":"GEOMETRY","properties":{"id":137,"identificador":84,"establecimiento":"FANATIC PESCA","sector":"PESCA","tipo_via":"AVENIDA","direccion":"HERNÁN CORTÉS, 238","ciudad":"Villanueva de la Serena","pais":"España","id_municipio":6153}},{"type":"Feature","id":"vva_comercio_comercios_105.fid-2f8a6b3_16bd8a748b7_1c62","geometry":{"type":"Point","coordinates":[-5.7962553084292034,38.972053428951796]},"geometry_name":"GEOMETRY","properties":{"id":141,"identificador":88,"establecimiento":"FISIOFERT","sector":"FISIOTERAPIA","tipo_via":"CALLE","direccion":"VIRIATO, 27","ciudad":"Villanueva de la Serena","pais":"España","id_municipio":6153}},{"type":"Feature","id":"vva_comercio_comercios_105.fid-2f8a6b3_16bd8a748b7_1c63","geometry":{"type":"Point","coordinates":[-5.795018390604743,38.96978168492145]},"geometry_name":"GEOMETRY","properties":{"id":105,"identificador":159,"establecimiento":"PASTELERÍA LA SIRENITA GUAY","sector":"ALIMENTACIÓN","tipo_via":"CALLE","direccion":"CAMINO DE MAGACELA, 11","ciudad":"Villanueva de la Serena","pais":"España","id_municipio":6153}},{"type":"Feature","id":"vva_comercio_comercios_105.fid-2f8a6b3_16bd8a748b7_1c64","geometry":{"type":"Point","coordinates":[-5.795655090080133,38.97822470490246]},"geometry_name":"GEOMETRY","properties":{"id":96,"identificador":154,"establecimiento":"PANADERÍA DAIMIEL","sector":"ALIMENTACIÓN","tipo_via":"CALLE","direccion":"PANADEROS, 18","ciudad":"Villanueva de la Serena","pais":"España","id_municipio":6153}},{"type":"Feature","id":"vva_comercio_comercios_105.fid-2f8a6b3_16bd8a748b7_1c65","geometry":{"type":"Point","coordinates":[-5.798166179100034,38.9725457271182]},"geometry_name":"GEOMETRY","properties":{"id":104,"identificador":158,"establecimiento":"PASTELERÍA LA SIRENITA GUAY","sector":"ALIMENTACIÓN","tipo_via":"CALLE","direccion":"ANTONIO MAURA, 13","ciudad":"Villanueva de la Serena","pais":"España","id_municipio":6153}},{"type":"Feature","id":"vva_comercio_comercios_105.fid-2f8a6b3_16bd8a748b7_1c66","geometry":{"type":"Point","coordinates":[-5.798522348663982,38.97221069125117]},"geometry_name":"GEOMETRY","properties":{"id":107,"identificador":161,"establecimiento":"PECAS","sector":"TEXTIL","tipo_via":"CALLE","direccion":"ANTONIO MAURA, 12","ciudad":"Villanueva de la Serena","pais":"España","id_municipio":6153}},{"type":"Feature","id":"vva_comercio_comercios_105.fid-2f8a6b3_16bd8a748b7_1c67","geometry":{"type":"Point","coordinates":[-5.797605487070501,38.973164817248495]},"geometry_name":"GEOMETRY","properties":{"id":108,"identificador":162,"establecimiento":"PECAS BEBÉ","sector":"TEXTIL","tipo_via":"CALLE","direccion":"ANTONIO MAURA, 40","ciudad":"Villanueva de la Serena","pais":"España","id_municipio":6153}},{"type":"Feature","id":"vva_comercio_comercios_105.fid-2f8a6b3_16bd8a748b7_1c68","geometry":{"type":"Point","coordinates":[-5.800677843341262,38.972605001080254]},"geometry_name":"GEOMETRY","properties":{"id":99,"identificador":53,"establecimiento":"CLÍNICA DENTAL DR. ISIDORO TENA","sector":"SALUD","tipo_via":"CALLE","direccion":"ZURBARÁN, 6","ciudad":"Villanueva de la Serena","pais":"España","id_municipio":6153}},{"type":"Feature","id":"vva_comercio_comercios_105.fid-2f8a6b3_16bd8a748b7_1c69","geometry":{"type":"Point","coordinates":[-5.790876323251657,38.9869449753855]},"geometry_name":"GEOMETRY","properties":{"id":174,"identificador":174,"establecimiento":"PICADERO MIGUEL BENITEZ","sector":"OCIO","tipo_via":"CAMINO","direccion":"DE LA JUNTA S/N","ciudad":"Villanueva de la Serena","pais":"España","id_municipio":6153}},{"type":"Feature","id":"vva_comercio_comercios_105.fid-2f8a6b3_16bd8a748b7_1c6a","geometry":{"type":"Point","coordinates":[-5.797065083078557,38.97428255883423]},"geometry_name":"GEOMETRY","properties":{"id":185,"identificador":184,"establecimiento":"SARA BOUTIQUE","sector":"TEXTIL","tipo_via":"CALLE","direccion":"LÓPEZ DE AYALA, 4","ciudad":"Villanueva de la Serena","pais":"España","id_municipio":6153}},{"type":"Feature","id":"vva_comercio_comercios_105.fid-2f8a6b3_16bd8a748b7_1c6b","geometry":{"type":"Point","coordinates":[-5.798435967927816,38.97370505316153]},"geometry_name":"GEOMETRY","properties":{"id":183,"identificador":182,"establecimiento":"RUSBEL","sector":"TEXTIL","tipo_via":"CALLE","direccion":"LARES,8","ciudad":"Villanueva de la Serena","pais":"España","id_municipio":6153}},{"type":"Feature","id":"vva_comercio_comercios_105.fid-2f8a6b3_16bd8a748b7_1c6c","geometry":{"type":"Point","coordinates":[-5.793489334140778,38.973030468605785]},"geometry_name":"GEOMETRY","properties":{"id":190,"identificador":190,"establecimiento":"SUPERDROMA","sector":"DROGUERÍA-PERFUMERIA","tipo_via":"AVENIDA","direccion":"SAN FRANCISCO, 65","ciudad":"Villanueva de la Serena","pais":"España","id_municipio":6153}},{"type":"Feature","id":"vva_comercio_comercios_105.fid-2f8a6b3_16bd8a748b7_1c6d","geometry":{"type":"Point","coordinates":[-5.798181634763408,38.97372528658486]},"geometry_name":"GEOMETRY","properties":{"id":161,"identificador":107,"establecimiento":"JAMONERÍA EL PARDO","sector":"ALIMENTACIÓN","tipo_via":"CALLE","direccion":"LARES, 6","ciudad":"Villanueva de la Serena","pais":"España","id_municipio":6153}},{"type":"Feature","id":"vva_comercio_comercios_105.fid-2f8a6b3_16bd8a748b7_1c6e","geometry":{"type":"Point","coordinates":[-5.797202172987793,38.9742289097303]},"geometry_name":"GEOMETRY","properties":{"id":148,"identificador":95,"establecimiento":"FRANCISCO PAVÓN","sector":"TEXTIL","tipo_via":"CALLE","direccion":"GÓMEZ MARÍN, 19","ciudad":"Villanueva de la Serena","pais":"España","id_municipio":6153}},{"type":"Feature","id":"vva_comercio_comercios_105.fid-2f8a6b3_16bd8a748b7_1c6f","geometry":{"type":"Point","coordinates":[-5.797602868418155,38.973324598294106]},"geometry_name":"GEOMETRY","properties":{"id":181,"identificador":180,"establecimiento":"REGALIA","sector":"REGALOS","tipo_via":"CALLE","direccion":"ANTONIO MAURA, 44","ciudad":"Villanueva de la Serena","pais":"España","id_municipio":6153}},{"type":"Feature","id":"vva_comercio_comercios_105.fid-2f8a6b3_16bd8a748b7_1c70","geometry":{"type":"Point","coordinates":[-5.7980970630845245,38.971865295924296]},"geometry_name":"GEOMETRY","properties":{"id":146,"identificador":93,"establecimiento":"FORLINE SUPLEMENTOS","sector":"DEPORTES","tipo_via":"CALLE","direccion":"MAGACELA, 30","ciudad":"Villanueva de la Serena","pais":"España","id_municipio":6153}},{"type":"Feature","id":"vva_comercio_comercios_105.fid-2f8a6b3_16bd8a748b7_1c71","geometry":{"type":"Point","coordinates":[-5.79464494005304,38.97481994540173]},"geometry_name":"GEOMETRY","properties":{"id":144,"identificador":91,"establecimiento":"FLORISTERÍA LA ORQUÍDEA","sector":"FLORISTERÍA","tipo_via":"CALLE","direccion":"HERRERA, 48","ciudad":"Villanueva de la Serena","pais":"España","id_municipio":6153}},{"type":"Feature","id":"vva_comercio_comercios_105.fid-2f8a6b3_16bd8a748b7_1c72","geometry":{"type":"Point","coordinates":[-5.794091654512771,38.97504460493642]},"geometry_name":"GEOMETRY","properties":{"id":145,"identificador":92,"establecimiento":"FLORISTERÍA VANESSA","sector":"FLORISTERÍA","tipo_via":"CALLE","direccion":"FELIPE TRIGO, 10","ciudad":"Villanueva de la Serena","pais":"España","id_municipio":6153}},{"type":"Feature","id":"vva_comercio_comercios_105.fid-2f8a6b3_16bd8a748b7_1c73","geometry":{"type":"Point","coordinates":[-5.79322085566927,38.97504518257966]},"geometry_name":"GEOMETRY","properties":{"id":147,"identificador":94,"establecimiento":"FOTO VÍDEO JUSTI","sector":"FOTOGRAFÍA","tipo_via":"AVENIDA","direccion":"HERNÁN CORTÉS, 85-A","ciudad":"Villanueva de la Serena","pais":"España","id_municipio":6153}},{"type":"Feature","id":"vva_comercio_comercios_105.fid-2f8a6b3_16bd8a748b7_1c74","geometry":{"type":"Point","coordinates":[-5.803451751297381,38.972590136342035]},"geometry_name":"GEOMETRY","properties":{"id":169,"identificador":166,"establecimiento":"PELUQUERIA EVA Mª","sector":"PELUQUERIA","tipo_via":"CALLE","direccion":"FAJARDO, 16","ciudad":"Villanueva de la Serena","pais":"España","id_municipio":6153}},{"type":"Feature","id":"vva_comercio_comercios_105.fid-2f8a6b3_16bd8a748b7_1c75","geometry":{"type":"Point","coordinates":[-5.790688952048527,38.976509782526875]},"geometry_name":"GEOMETRY","properties":{"id":166,"identificador":167,"establecimiento":"PELUQUERÍA ALICIA FERREIRA DORADO","sector":"PELUQUERÍA","tipo_via":"CALLE","direccion":"CERCÓN DEL REY, 68","ciudad":"Villanueva de la Serena","pais":"España","id_municipio":6153}},{"type":"Feature","id":"vva_comercio_comercios_105.fid-2f8a6b3_16bd8a748b7_1c76","geometry":{"type":"Point","coordinates":[-5.7984909876039,38.97344252261967]},"geometry_name":"GEOMETRY","properties":{"id":152,"identificador":98,"establecimiento":"GYG INFORMÁTICOS","sector":"INFORMÁTICA","tipo_via":"CALLE","direccion":"ALONSO MUÑOZ, 6","ciudad":"Villanueva de la Serena","pais":"España","id_municipio":6153}},{"type":"Feature","id":"vva_comercio_comercios_105.fid-2f8a6b3_16bd8a748b7_1c77","geometry":{"type":"Point","coordinates":[-5.798736515280829,38.97427700086515]},"geometry_name":"GEOMETRY","properties":{"id":153,"identificador":99,"establecimiento":"H.H.","sector":"ALIMENTACIÓN","tipo_via":"CALLE","direccion":"RAMÓN Y CAJAL","ciudad":"Villanueva de la Serena","pais":"España","id_municipio":6153}},{"type":"Feature","id":"vva_comercio_comercios_105.fid-2f8a6b3_16bd8a748b7_1c78","geometry":{"type":"Point","coordinates":[-5.797033362333223,38.969454427127424]},"geometry_name":"GEOMETRY","properties":{"id":157,"identificador":103,"establecimiento":"INMAGINE","sector":"DISEÑO GRÁFICO","tipo_via":"CALLE","direccion":"JOSÉ GALLARDO, 21 BAJO LOCAL","ciudad":"Villanueva de la Serena","pais":"España","id_municipio":6153}},{"type":"Feature","id":"vva_comercio_comercios_105.fid-2f8a6b3_16bd8a748b7_1c79","geometry":{"type":"Point","coordinates":[-5.794814457800546,38.97335102486237]},"geometry_name":"GEOMETRY","properties":{"id":159,"identificador":105,"establecimiento":"IZHAN","sector":"TEXTIL","tipo_via":"AVENIDA","direccion":"SAN FRANCISCO, 45 BAJO","ciudad":"Villanueva de la Serena","pais":"España","id_municipio":6153}},{"type":"Feature","id":"vva_comercio_comercios_105.fid-2f8a6b3_16bd8a748b7_1c7a","geometry":{"type":"Point","coordinates":[-5.796635528104507,38.97421917332293]},"geometry_name":"GEOMETRY","properties":{"id":158,"identificador":104,"establecimiento":"INMOBILIARIA INTRESSOL, S.L.","sector":"INMOBILIARIA","tipo_via":"CALLE","direccion":"GABRIEL Y GALÁN, 5 BJO.","ciudad":"Villanueva de la Serena","pais":"España","id_municipio":6153}},{"type":"Feature","id":"vva_comercio_comercios_105.fid-2f8a6b3_16bd8a748b7_1c7b","geometry":{"type":"Point","coordinates":[-5.798558597695723,38.974217538703556]},"geometry_name":"GEOMETRY","properties":{"id":162,"identificador":108,"establecimiento":"JOYERÍA BENÍTEZ","sector":"JOYERÍA","tipo_via":"CALLE","direccion":"RAMÓN Y CAJAL, 14","ciudad":"Villanueva de la Serena","pais":"España","id_municipio":6153}},{"type":"Feature","id":"vva_comercio_comercios_105.fid-2f8a6b3_16bd8a748b7_1c7c","geometry":{"type":"Point","coordinates":[-5.79760286970087,38.97340568520126]},"geometry_name":"GEOMETRY","properties":{"id":163,"identificador":163,"establecimiento":"PECAS LENCERIA","sector":"TEXTIL","tipo_via":"CALLE","direccion":"ANTONIO MAURA, 46","ciudad":"Villanueva de la Serena","pais":"España","id_municipio":6153}},{"type":"Feature","id":"vva_comercio_comercios_105.fid-2f8a6b3_16bd8a748b7_1c7d","geometry":{"type":"Point","coordinates":[-5.798689273596758,38.972163735048944]},"geometry_name":"GEOMETRY","properties":{"id":164,"identificador":164,"establecimiento":"PECAS STOCK","sector":"TEXTIL","tipo_via":"CALLE","direccion":"ANTONIO MAURA, 10","ciudad":"Villanueva de la Serena","pais":"España","id_municipio":6153}},{"type":"Feature","id":"vva_comercio_comercios_105.fid-2f8a6b3_16bd8a748b7_1c7e","geometry":{"type":"Point","coordinates":[-5.7975419590566055,38.97278928709633]},"geometry_name":"GEOMETRY","properties":{"id":165,"identificador":165,"establecimiento":"PELETERÍA ALEJO GALLARDO","sector":"TEXTIL","tipo_via":"CALLE","direccion":"MARCELO MACÍAS, 3","ciudad":"Villanueva de la Serena","pais":"España","id_municipio":6153}},{"type":"Feature","id":"vva_comercio_comercios_105.fid-2f8a6b3_16bd8a748b7_1c7f","geometry":{"type":"Point","coordinates":[-5.798045348894544,38.97182276685798]},"geometry_name":"GEOMETRY","properties":{"id":168,"identificador":169,"establecimiento":"PELUQUERÍA ELVIRA","sector":"BELLEZA","tipo_via":"CALLE","direccion":"MAGACELA, 32","ciudad":"Villanueva de la Serena","pais":"España","id_municipio":6153}},{"type":"Feature","id":"vva_comercio_comercios_105.fid-2f8a6b3_16bd8a748b7_1c80","geometry":{"type":"Point","coordinates":[-5.795353128084371,38.96893399421109]},"geometry_name":"GEOMETRY","properties":{"id":177,"identificador":176,"establecimiento":"PODE, PODOLOGÍA EXTREMEÑA","sector":"SALUD","tipo_via":"PLAZA","direccion":"DE LA JABONERA, 3 LOCAL 1","ciudad":"Villanueva de la Serena","pais":"España","id_municipio":6153}},{"type":"Feature","id":"vva_comercio_comercios_105.fid-2f8a6b3_16bd8a748b7_1c81","geometry":{"type":"Point","coordinates":[-5.797349849730162,38.97503168648109]},"geometry_name":"GEOMETRY","properties":{"id":167,"identificador":168,"establecimiento":"PELUQUERÍA DEVORAH","sector":"PELUQUERÍA","tipo_via":"CALLE","direccion":"LÓPEZ DE AYALA, 17","ciudad":"Villanueva de la Serena","pais":"España","id_municipio":6153}},{"type":"Feature","id":"vva_comercio_comercios_105.fid-2f8a6b3_16bd8a748b7_1c82","geometry":{"type":"Point","coordinates":[-5.796671859813556,38.97369465403595]},"geometry_name":"GEOMETRY","properties":{"id":182,"identificador":181,"establecimiento":"REGALOS SORPRESA","sector":"REGALOS-DECORACIÓN","tipo_via":"AVENIDA","direccion":"SAN FRANCISCO, 8","ciudad":"Villanueva de la Serena","pais":"España","id_municipio":6153}},{"type":"Feature","id":"vva_comercio_comercios_105.fid-2f8a6b3_16bd8a748b7_1c83","geometry":{"type":"Point","coordinates":[-5.794774469779694,38.97648426765103]},"geometry_name":"GEOMETRY","properties":{"id":171,"identificador":171,"establecimiento":"PELUQUERÍA Y ESTÉTICA NUEVA IMAGEN","sector":"PELUQUERÍA","tipo_via":"CALLE","direccion":"HERRERA, 69","ciudad":"Villanueva de la Serena","pais":"España","id_municipio":6153}},{"type":"Feature","id":"vva_comercio_comercios_105.fid-2f8a6b3_16bd8a748b7_1c84","geometry":{"type":"Point","coordinates":[-5.800497688138016,38.97563610598288]},"geometry_name":"GEOMETRY","properties":{"id":170,"identificador":170,"establecimiento":"PELUQUERÍA LÍNEA","sector":"PELUQUERÍA","tipo_via":"CALLE","direccion":"NAZARENO, 13","ciudad":"Villanueva de la Serena","pais":"España","id_municipio":6153}},{"type":"Feature","id":"vva_comercio_comercios_105.fid-2f8a6b3_16bd8a748b7_1c85","geometry":{"type":"Point","coordinates":[-5.793968600144515,38.97168738662878]},"geometry_name":"GEOMETRY","properties":{"id":173,"identificador":173,"establecimiento":"PETO´S","sector":"MERCERÍA","tipo_via":"AVENIDA","direccion":"HERNÁN CORTÉS, 40","ciudad":"Villanueva de la Serena","pais":"España","id_municipio":6153}},{"type":"Feature","id":"vva_comercio_comercios_105.fid-2f8a6b3_16bd8a748b7_1c86","geometry":{"type":"Point","coordinates":[-5.79867201881034,38.97428765883808]},"geometry_name":"GEOMETRY","properties":{"id":175,"identificador":175,"establecimiento":"PIPER","sector":"TEXTIL","tipo_via":"CALLE","direccion":"RAMÓN Y CAJAL, 17","ciudad":"Villanueva de la Serena","pais":"España","id_municipio":6153}},{"type":"Feature","id":"vva_comercio_comercios_105.fid-2f8a6b3_16bd8a748b7_1c87","geometry":{"type":"Point","coordinates":[-5.791924651550828,38.97145531833322]},"geometry_name":"GEOMETRY","properties":{"id":178,"identificador":178,"establecimiento":"PUBLICIDAD VILLANUEVA","sector":"SERVICIOS","tipo_via":"CALLE","direccion":"DONOSO CORTES, 64","ciudad":"Villanueva de la Serena","pais":"España","id_municipio":6153}},{"type":"Feature","id":"vva_comercio_comercios_105.fid-2f8a6b3_16bd8a748b7_1c88","geometry":{"type":"Point","coordinates":[-5.797106214217151,38.97448885571597]},"geometry_name":"GEOMETRY","properties":{"id":186,"identificador":185,"establecimiento":"SARA NATAL","sector":"BEBE PUERICULTURA","tipo_via":"CALLE","direccion":"LÓPEZ DE AYALA, 8","ciudad":"Villanueva de la Serena","pais":"España","id_municipio":6153}},{"type":"Feature","id":"vva_comercio_comercios_105.fid-2f8a6b3_16bd8a748b7_1c89","geometry":{"type":"Point","coordinates":[-5.796604001691623,38.97343616359615]},"geometry_name":"GEOMETRY","properties":{"id":179,"identificador":179,"establecimiento":"RAYXAL","sector":"AGENCIA DE VIAJES","tipo_via":"CALLE","direccion":"VIRIATO, 4","ciudad":"Villanueva de la Serena","pais":"España","id_municipio":6153}},{"type":"Feature","id":"vva_comercio_comercios_105.fid-2f8a6b3_16bd8a748b7_1c8a","geometry":{"type":"Point","coordinates":[-5.7865869767449105,38.969584070684824]},"geometry_name":"GEOMETRY","properties":{"id":143,"identificador":90,"establecimiento":"FLORHUSA","sector":"FLORISTERÍA","tipo_via":"CALLE","direccion":"JOSÉ MANUEL CALDERÓN","ciudad":"Villanueva de la Serena","pais":"España","id_municipio":6153}},{"type":"Feature","id":"vva_comercio_comercios_105.fid-2f8a6b3_16bd8a748b7_1c8b","geometry":{"type":"Point","coordinates":[-5.79330509795101,38.97289198185574]},"geometry_name":"GEOMETRY","properties":{"id":184,"identificador":183,"establecimiento":"SANTIAGO GIL","sector":"PRODUTOS DE PELUQUERÍA","tipo_via":"AVENIDA","direccion":"SAN FRANCISCO, 34","ciudad":"Villanueva de la Serena","pais":"España","id_municipio":6153}},{"type":"Feature","id":"vva_comercio_comercios_105.fid-2f8a6b3_16bd8a748b7_1c8c","geometry":{"type":"Point","coordinates":[-5.794693188159802,38.97321553603641]},"geometry_name":"GEOMETRY","properties":{"id":188,"identificador":188,"establecimiento":"STRAVAGANZZA","sector":"TEXTIL Y COMPLEMENTOS","tipo_via":"AVENIDA","direccion":"SAN FRANCISCO, 22","ciudad":"Villanueva de la Serena","pais":"España","id_municipio":6153}},{"type":"Feature","id":"vva_comercio_comercios_105.fid-2f8a6b3_16bd8a748b7_1c8d","geometry":{"type":"Point","coordinates":[-5.797946865248802,38.96973464679845]},"geometry_name":"GEOMETRY","properties":{"id":189,"identificador":189,"establecimiento":"SUMIPAL","sector":"PAPELERÍA","tipo_via":"CALLE","direccion":"JOSÉ GALLARDO, 11","ciudad":"Villanueva de la Serena","pais":"España","id_municipio":6153}},{"type":"Feature","id":"vva_comercio_comercios_105.fid-2f8a6b3_16bd8a748b7_1c8e","geometry":{"type":"Point","coordinates":[-5.798714018895418,38.97340590267761]},"geometry_name":"GEOMETRY","properties":{"id":187,"identificador":187,"establecimiento":"SEINTEL","sector":"NUEVAS TECNOLOGÍAS","tipo_via":"CALLE","direccion":"ALONSO MUÑOZ, 2","ciudad":"Villanueva de la Serena","pais":"España","id_municipio":6153}},{"type":"Feature","id":"vva_comercio_comercios_105.fid-2f8a6b3_16bd8a748b7_1c8f","geometry":{"type":"Point","coordinates":[-5.798447182510158,38.974226883109914]},"geometry_name":"GEOMETRY","properties":{"id":213,"identificador":213,"establecimiento":"ZANCO´S","sector":"ZAPATERÍA","tipo_via":"CALLE","direccion":"RAMÓN Y CAJAL, 21","ciudad":"Villanueva de la Serena","pais":"España","id_municipio":6153}},{"type":"Feature","id":"vva_comercio_comercios_105.fid-2f8a6b3_16bd8a748b7_1c90","geometry":{"type":"Point","coordinates":[-5.798287447761352,38.97215868007358]},"geometry_name":"GEOMETRY","properties":{"id":192,"identificador":192,"establecimiento":"TALLER DE JOYERÍA QUINTANA","sector":"JOYERÍA","tipo_via":"CALLE","direccion":"MAGACELA, 37","ciudad":"Villanueva de la Serena","pais":"España","id_municipio":6153}},{"type":"Feature","id":"vva_comercio_comercios_105.fid-2f8a6b3_16bd8a748b7_1c91","geometry":{"type":"Point","coordinates":[-5.798614470378241,38.97427108661764]},"geometry_name":"GEOMETRY","properties":{"id":214,"identificador":214,"establecimiento":"ZAPATERÍA PASOS","sector":"CALZADO","tipo_via":"CALLE","direccion":"RAMÓN Y CAJAL, 19","ciudad":"Villanueva de la Serena","pais":"España","id_municipio":6153}},{"type":"Feature","id":"vva_comercio_comercios_105.fid-2f8a6b3_16bd8a748b7_1c92","geometry":{"type":"Point","coordinates":[-5.798099946293678,38.97373203188527]},"geometry_name":"GEOMETRY","properties":{"id":199,"identificador":199,"establecimiento":"TINTORERÍA MARMAN","sector":"TINTORERÍA","tipo_via":"CALLE","direccion":"LARES, 8","ciudad":"Villanueva de la Serena","pais":"España","id_municipio":6153}},{"type":"Feature","id":"vva_comercio_comercios_105.fid-2f8a6b3_16bd8a748b7_1c93","geometry":{"type":"Point","coordinates":[-5.793075565025193,38.97294849819337]},"geometry_name":"GEOMETRY","properties":{"id":206,"identificador":206,"establecimiento":"VICIO MODAS","sector":"TEXTIL","tipo_via":"AVENIDA","direccion":"SAN FRANCISCO, 65 L-18","ciudad":"Villanueva de la Serena","pais":"España","id_municipio":6153}},{"type":"Feature","id":"vva_comercio_comercios_105.fid-2f8a6b3_16bd8a748b7_1c94","geometry":{"type":"Point","coordinates":[-5.797710504843166,38.97405209078031]},"geometry_name":"GEOMETRY","properties":{"id":207,"identificador":207,"establecimiento":"VIDA PIEL","sector":"BELLEZA ESTÉTICA","tipo_via":"CALLE","direccion":"RAMÓN Y CAJAL, 33 BJ","ciudad":"Villanueva de la Serena","pais":"España","id_municipio":6153}},{"type":"Feature","id":"vva_comercio_comercios_105.fid-2f8a6b3_16bd8a748b7_1c95","geometry":{"type":"Point","coordinates":[-5.797887738747143,38.97270308252443]},"geometry_name":"GEOMETRY","properties":{"id":208,"identificador":208,"establecimiento":"VISER","sector":"TEXTIL","tipo_via":"CALLE","direccion":"ANTONIO MAURA, 28","ciudad":"Villanueva de la Serena","pais":"España","id_municipio":6153}},{"type":"Feature","id":"vva_comercio_comercios_105.fid-2f8a6b3_16bd8a748b7_1c96","geometry":{"type":"Point","coordinates":[-5.799091802338884,38.97429731976986]},"geometry_name":"GEOMETRY","properties":{"id":209,"identificador":209,"establecimiento":"VISION AUDIO 10","sector":"ÓPTICA","tipo_via":"CALLE","direccion":"RAMÓN Y CAJAL, 6","ciudad":"Villanueva de la Serena","pais":"España","id_municipio":6153}},{"type":"Feature","id":"vva_comercio_comercios_105.fid-2f8a6b3_16bd8a748b7_1c97","geometry":{"type":"Point","coordinates":[-5.793407409399185,38.973011844031944]},"geometry_name":"GEOMETRY","properties":{"id":203,"identificador":203,"establecimiento":"VIAJES CENTURY TRAVEL","sector":"AGENCIA DE VIAJES","tipo_via":"AVENIDA","direccion":"SAN FRANCISCO, 63 LOCAL 29A","ciudad":"Villanueva de la Serena","pais":"España","id_municipio":6153}},{"type":"Feature","id":"vva_comercio_comercios_105.fid-2f8a6b3_16bd8a748b7_1c98","geometry":{"type":"Point","coordinates":[-5.793419366066981,38.97652049794907]},"geometry_name":"GEOMETRY","properties":{"id":193,"identificador":193,"establecimiento":"TAPIZADOS LOZANO","sector":"TAPICERÍA","tipo_via":"AVENIDA","direccion":"HERNÁN CORTÉS, 113 Bº","ciudad":"Villanueva de la Serena","pais":"España","id_municipio":6153}},{"type":"Feature","id":"vva_comercio_comercios_105.fid-2f8a6b3_16bd8a748b7_1c99","geometry":{"type":"Point","coordinates":[-5.797797003662801,38.973798379807825]},"geometry_name":"GEOMETRY","properties":{"id":204,"identificador":204,"establecimiento":"VIAJES MARÍA","sector":"AGENCIA DE VIAJES","tipo_via":"CALLE","direccion":"LARES, 15","ciudad":"Villanueva de la Serena","pais":"España","id_municipio":6153}},{"type":"Feature","id":"vva_comercio_comercios_105.fid-2f8a6b3_16bd8a748b7_1c9a","geometry":{"type":"Point","coordinates":[-5.79797917874679,38.97411343196986]},"geometry_name":"GEOMETRY","properties":{"id":194,"identificador":194,"establecimiento":"TARA","sector":"TEXTIL","tipo_via":"CALLE","direccion":"RAMÓN Y CAJAL, 31","ciudad":"Villanueva de la Serena","pais":"España","id_municipio":6153}},{"type":"Feature","id":"vva_comercio_comercios_105.fid-2f8a6b3_16bd8a748b7_1c9b","geometry":{"type":"Point","coordinates":[-5.798392258852232,38.97417649710889]},"geometry_name":"GEOMETRY","properties":{"id":191,"identificador":191,"establecimiento":"SUPERDROMA","sector":"PERFUMERÍA","tipo_via":"CALLE","direccion":"RAMÓN Y CAJAL, 16","ciudad":"Villanueva de la Serena","pais":"España","id_municipio":6153}},{"type":"Feature","id":"vva_comercio_comercios_105.fid-2f8a6b3_16bd8a748b7_1c9c","geometry":{"type":"Point","coordinates":[-5.7974052156306035,38.9736765456512]},"geometry_name":"GEOMETRY","properties":{"id":43,"identificador":25,"establecimiento":"BAZAR PILI","sector":"BAZAR","tipo_via":"PLAZA","direccion":"PASADERAS, 12","ciudad":"Villanueva de la Serena","pais":"España","id_municipio":6153}},{"type":"Feature","id":"vva_comercio_comercios_105.fid-2f8a6b3_16bd8a748b7_1c9d","geometry":{"type":"Point","coordinates":[-5.792721662121967,38.970957368917176]},"geometry_name":"GEOMETRY","properties":{"id":196,"identificador":196,"establecimiento":"TEXTILES JOSE MARÍA","sector":"TEXTIL","tipo_via":"CALLE","direccion":"DONOSO CORTÉS, 37","ciudad":"Villanueva de la Serena","pais":"España","id_municipio":6153}},{"type":"Feature","id":"vva_comercio_comercios_105.fid-2f8a6b3_16bd8a748b7_1c9e","geometry":{"type":"Point","coordinates":[-5.797501923936515,38.97383338955258]},"geometry_name":"GEOMETRY","properties":{"id":210,"identificador":210,"establecimiento":"VODAFONE","sector":"TELEFONÍA","tipo_via":"CALLE","direccion":"LARES, 1","ciudad":"Villanueva de la Serena","pais":"España","id_municipio":6153}},{"type":"Feature","id":"vva_comercio_comercios_105.fid-2f8a6b3_16bd8a748b7_1c9f","geometry":{"type":"Point","coordinates":[-5.793583280068966,38.97802558091256]},"geometry_name":"GEOMETRY","properties":{"id":197,"identificador":197,"establecimiento":"TIENDA PATROS","sector":"ALIMENTACIÓN","tipo_via":"AVENIDA","direccion":"HERNÁN CORTÉS, 157","ciudad":"Villanueva de la Serena","pais":"España","id_municipio":6153}},{"type":"Feature","id":"vva_comercio_comercios_105.fid-2f8a6b3_16bd8a748b7_1ca0","geometry":{"type":"Point","coordinates":[-5.799604160279724,38.97067621900783]},"geometry_name":"GEOMETRY","properties":{"id":97,"identificador":52,"establecimiento":"CLÍNICA DE FISIOTERAPIA CATALINA HIDALGO","sector":"SALUD","tipo_via":"PLAZA","direccion":"DEL CORAZÓN DE JESÚS, 14 BAJO","ciudad":"Villanueva de la Serena","pais":"España","id_municipio":6153}},{"type":"Feature","id":"vva_comercio_comercios_105.fid-2f8a6b3_16bd8a748b7_1ca1","geometry":{"type":"Point","coordinates":[-5.79834031522282,38.97229316291933]},"geometry_name":"GEOMETRY","properties":{"id":14,"identificador":57,"establecimiento":"COLCHONERÍA LA CAMA","sector":"COLCHONERÍA","tipo_via":"CALLE","direccion":"ANTONIO MAURA, 14","ciudad":"Villanueva de la Serena","pais":"España","id_municipio":6153}},{"type":"Feature","id":"vva_comercio_comercios_105.fid-2f8a6b3_16bd8a748b7_1ca2","geometry":{"type":"Point","coordinates":[-5.796705559214477,38.97307130355448]},"geometry_name":"GEOMETRY","properties":{"id":205,"identificador":205,"establecimiento":"VIAJES VIDAL","sector":"AGENCIA DE VIAJES","tipo_via":"CALLE","direccion":"VIRIATO,7","ciudad":"Villanueva de la Serena","pais":"España","id_municipio":6153}},{"type":"Feature","id":"vva_comercio_comercios_105.fid-2f8a6b3_16bd8a748b7_1ca3","geometry":{"type":"Point","coordinates":[-5.796742620041157,38.973817052848595]},"geometry_name":"GEOMETRY","properties":{"id":53,"identificador":73,"establecimiento":"DOUGLAS","sector":"PERFUMERÍA","tipo_via":"AVENIDA","direccion":"SAN FRANCISCO, 3","ciudad":"Villanueva de la Serena","pais":"España","id_municipio":6153}},{"type":"Feature","id":"vva_comercio_comercios_105.fid-2f8a6b3_16bd8a748b7_1ca4","geometry":{"type":"Point","coordinates":[-5.793449111989512,38.97302092409066]},"geometry_name":"GEOMETRY","properties":{"id":211,"identificador":211,"establecimiento":"VOYTUR","sector":"ACADEMIA IDIOMAS","tipo_via":"PASAJE","direccion":"SAN FRANCISCO 63 - LOCAL 4","ciudad":"Villanueva de la Serena","pais":"España","id_municipio":6153}},{"type":"Feature","id":"vva_comercio_comercios_105.fid-2f8a6b3_16bd8a748b7_1ca5","geometry":{"type":"Point","coordinates":[-5.794870439871109,38.96929962144491]},"geometry_name":"GEOMETRY","properties":{"id":142,"identificador":89,"establecimiento":"FISIOLIFE PLUS","sector":"CLINICA FISIOTERAPIA","tipo_via":"CALLE","direccion":"JOSÉ MIGUEL SANTIAGO CASTELO, 3 LOCAL","ciudad":"Villanueva de la Serena","pais":"España","id_municipio":6153}},{"type":"Feature","id":"vva_comercio_comercios_105.fid-2f8a6b3_16bd8a748b7_1ca6","geometry":{"type":"Point","coordinates":[-5.798438841763385,38.972310750095765]},"geometry_name":"GEOMETRY","properties":{"id":212,"identificador":212,"establecimiento":"WOY MOBILE","sector":"TELEFONÍA","tipo_via":"CALLE","direccion":"ANTONIO MAURA, 7 BAJO","ciudad":"Villanueva de la Serena","pais":"España","id_municipio":6153}}],"crs":{"type":"name","properties":{"name":"urn:ogc:def:crs:EPSG::4258"}}}